,City,Cloudiness,Country,Date,Humidity,Longitude,Latitude,Max Temp,Wind Speed,Pressure
0,Hermanus,17,ZA,1565570371,96,19.24,-34.42,10.56,2.24,1016.0
1,Avarua,22,CK,1565570371,73,-159.78,-21.21,25.0,3.1,1018.0
2,Soc Trang,20,VN,1565570371,100,105.98,9.6,27.0,2.6,1009.0
3,Najran,40,SA,1565570325,32,44.22,17.54,29.0,4.1,1012.0
4,Kapaa,1,US,1565570371,66,-159.32,22.08,31.0,4.1,1015.0
5,Provideniya,90,RU,1565570371,93,-173.23,64.42,13.0,7.0,1012.0
6,Clyde River,90,CA,1565570185,100,-68.59,70.47,5.0,5.7,1022.0
7,New Norfolk,75,AU,1565570372,57,147.06,-42.78,11.11,9.3,1013.0
8,Balotra,22,IN,1565570372,81,72.24,25.83,27.42,5.33,1001.57
9,Saint-Philippe,1,CA,1565570372,50,-73.48,45.36,24.0,5.1,1011.0
10,Tadine,100,NC,1565570372,92,167.88,-21.55,20.42,8.29,1015.9
11,Albany,20,US,1565570193,49,-73.75,42.65,23.0,4.1,1015.0
12,Ushuaia,75,AR,1565570011,94,-68.31,-54.81,0.0,9.3,1024.0
13,San Cristobal,4,HN,1565570372,60,-86.92,14.68,24.72,3.07,1011.93
14,Bluff,0,AU,1565570141,41,149.07,-23.58,15.42,0.95,1022.21
15,Takanabe,75,JP,1565570373,83,131.49,32.13,29.0,5.1,1003.0
16,Torbay,90,CA,1565570025,82,-52.73,47.66,19.44,5.7,1006.0
17,Amudat,50,UG,1565570373,84,34.95,1.95,18.92,0.88,1013.87
18,Carnarvon,5,ZA,1565570120,91,22.13,-30.97,3.82,3.55,1022.28
19,Tiksi,66,RU,1565570181,64,128.87,71.64,13.62,1.83,1012.49
20,Butaritari,86,KI,1565570348,73,172.79,3.07,28.02,2.92,1010.73
21,Orobo,71,NG,1565570373,98,7.28,6.84,22.12,1.57,1014.74
22,Ostrovnoy,97,RU,1565570198,79,39.51,68.05,6.02,7.19,1016.72
23,Hithadhoo,100,MV,1565570065,71,73.08,-0.6,28.42,5.52,1009.6
24,Talara,0,PE,1565570215,88,-81.27,-4.58,16.92,10.09,1010.33
25,Namtsy,90,RU,1565570374,87,129.66,62.72,15.0,3.0,1006.0
26,Cape Town,75,ZA,1565570047,87,18.42,-33.93,13.33,4.1,1022.0
27,Port Charlotte,75,US,1565570374,88,-82.09,26.98,30.0,3.89,1015.0
28,Prince Rupert,90,CA,1565570182,68,-130.32,54.32,19.0,2.6,1017.0
29,Egvekinot,100,RU,1565570112,91,-179.17,66.32,8.42,2.01,1011.42
30,Mataura,72,NZ,1565570151,74,168.86,-46.19,8.89,4.47,994.0
31,Atuona,0,PF,1565570291,79,-139.03,-9.8,26.22,7.74,1011.3
32,Rikitea,99,PF,1565569910,83,-134.97,-23.12,22.52,8.2,1020.56
33,Port Hardy,75,CA,1565570179,68,-127.42,50.7,18.0,2.1,1017.0
34,Marondera,0,ZW,1565570375,58,31.55,-18.19,14.0,4.1,1025.0
35,Port Alfred,78,ZA,1565570154,75,26.89,-33.59,15.0,2.24,1016.0
36,Vaini,75,IN,1565569925,94,74.49,15.34,22.0,4.1,1010.0
37,Khatanga,0,RU,1565570128,49,102.47,71.98,20.02,2.87,1004.34
38,Arman,100,RU,1565570375,51,150.17,59.7,19.42,1.75,1005.72
39,Chake Chake,7,TZ,1565570375,78,39.77,-5.25,24.72,6.73,1016.89
40,Qaanaaq,95,GL,1565570153,67,-69.36,77.48,7.02,0.68,1024.13
41,Carupano,30,VE,1565570376,86,-63.26,10.67,24.22,1.36,1012.49
42,Hilo,1,US,1565570132,62,-155.08,19.71,29.0,5.7,1015.0
43,Leningradskiy,100,RU,1565570151,93,178.42,69.38,4.42,8.18,1013.91
44,Bredasdorp,28,ZA,1565570348,76,20.04,-34.53,11.0,3.6,1019.0
45,Dikson,94,RU,1565570150,90,80.55,73.51,4.52,4.89,1007.23
46,Airai,1,TL,1565570156,37,125.41,-8.93,27.12,0.7,1016.2
47,Arraial do Cabo,0,BR,1565570142,94,-42.02,-22.97,21.82,4.82,1022.79
48,Hasaki,75,JP,1565570121,88,140.83,35.73,30.0,2.1,1009.0
49,Bethel,40,US,1565570129,77,-161.76,60.79,18.0,6.2,1020.0
50,Pisco,0,PE,1565570145,82,-76.2,-13.71,16.11,4.6,1013.0
51,Kodiak,75,US,1565570153,78,-94.76,39.95,27.78,2.6,1014.0
52,Busselton,0,AU,1565570135,44,115.35,-33.64,13.33,9.56,1014.0
53,Gat,90,SN,1565570147,74,-16.54,14.69,27.0,2.1,1015.0
54,Batagay,0,RU,1565570376,41,134.64,67.65,22.32,1.49,1010.13
55,San Patricio,0,PY,1565570176,89,-56.83,-26.98,16.22,1.51,1013.69
56,East London,50,ZA,1565570068,82,27.91,-33.02,11.12,2.49,1018.03
57,Punta Arenas,0,CL,1565570124,68,-70.91,-53.16,-1.0,3.6,1025.0
58,Kozulka,0,UA,1565570377,93,23.8,50.04,16.0,3.0,1018.0
59,Kruisfontein,13,ZA,1565570136,72,24.73,-34.0,9.52,4.56,1018.12
60,Ilulissat,40,GL,1565570171,30,-51.1,69.22,13.0,4.1,1019.0
61,Ambon,13,FR,1565570377,93,-2.56,47.55,16.11,1.5,1017.0
62,Mazatlan,40,MX,1565570378,62,-106.42,23.22,32.22,3.1,1011.0
63,Piacabucu,23,BR,1565570170,88,-36.43,-10.41,23.22,4.77,1019.16
64,Ilo,87,PE,1565570378,82,-71.34,-17.65,14.62,4.1,1017.07
65,Gorontalo,34,ID,1565570373,73,123.06,0.54,26.82,3.48,1012.66
66,Znamenskoye,43,RU,1565570378,93,73.82,57.13,13.22,2.65,1011.39
67,Talnakh,90,RU,1565570138,100,88.39,69.49,12.0,4.0,1006.0
68,Tuktoyaktuk,90,CA,1565570140,93,-133.03,69.44,7.0,6.2,1010.0
69,Puerto Escondido,75,MX,1565570149,74,-97.07,15.86,30.0,3.6,1011.0
70,Jamestown,6,AU,1565569910,72,138.6,-33.21,7.82,0.38,1029.25
71,Oistins,40,BB,1565570379,83,-59.53,13.07,27.0,8.7,1015.0
72,Chernyshevskiy,0,RU,1565570379,63,112.47,63.01,16.92,3.91,1005.65
73,Seoul,90,KR,1565570167,94,126.98,37.57,26.0,2.1,1000.0
74,Kommunisticheskiy,100,RU,1565570379,97,64.48,61.68,15.72,3.65,1001.27
75,Gao,55,ML,1565570379,50,-0.04,16.28,30.42,7.84,1009.05
76,Bubaque,100,GW,1565570160,86,-15.83,11.28,25.82,8.78,1015.14
77,Sept-Iles,75,CA,1565570227,82,-66.38,50.2,17.22,1.0,1002.0
78,Ishikawa,75,JP,1565570380,78,140.45,37.14,31.67,4.1,1011.0
79,Mar del Plata,25,AR,1565570125,54,-67.52,-46.43,0.62,5.48,1024.82
80,Constitucion,20,MX,1565570210,23,-104.67,23.99,28.0,3.1,1021.0
81,Severo-Kurilsk,43,RU,1565569932,93,156.12,50.68,9.62,5.97,1005.79
82,Zyryanka,8,RU,1565570380,55,150.89,65.73,17.62,6.58,1010.22
83,Luwuk,100,ID,1565569952,92,122.79,-0.95,18.62,2.32,1013.9
84,Nanortalik,7,GL,1565570173,68,-45.24,60.14,8.52,4.85,1017.03
85,Cherskiy,100,RU,1565570290,63,161.3,68.75,12.92,4.07,1012.82
86,Puerto Ayora,0,EC,1565570003,73,-90.35,-0.74,22.0,7.7,1011.0
87,Saint-Augustin,75,CA,1565570230,64,-73.98,45.63,24.0,1.0,1011.0
88,La Seyne-sur-Mer,70,FR,1565570380,94,5.88,43.1,24.44,1.0,1013.0
89,Comodoro Rivadavia,75,AR,1565570183,52,-67.48,-45.87,5.0,4.6,1025.0
90,Tongchuan,0,CN,1565570220,69,108.95,34.9,25.0,2.0,1005.0
91,Katsuura,75,JP,1565570160,74,134.5,33.93,30.56,2.1,1005.0
92,Kolosovka,33,RU,1565570381,90,73.61,56.47,14.32,3.15,1010.9
93,Port Elizabeth,1,US,1565569935,56,-74.98,39.31,26.0,2.1,1016.0
94,Wrexham,0,GB,1565570253,93,-2.99,53.05,13.33,1.5,1012.0
95,Abha,40,SA,1565570381,88,42.5,18.22,20.0,3.1,1021.0
96,Matara,1,BI,1565570239,73,29.48,-3.48,10.32,0.54,1014.78
97,Lompoc,1,US,1565569880,77,-120.46,34.64,26.67,5.7,1015.0
98,Hobart,75,AU,1565569961,57,147.33,-42.88,11.11,9.3,1013.0
99,Launceston,40,AU,1565570185,86,147.14,-41.43,6.67,3.6,1016.0
100,Barrow,13,AR,1565570154,59,-60.23,-38.31,8.82,2.39,1012.25
101,Plesetsk,0,RU,1565570382,93,40.29,62.71,2.22,0.11,1019.4
102,Itaituba,13,BR,1565570166,47,-55.99,-4.26,25.92,0.8,1011.08
103,Katherine,0,AU,1565570382,18,132.26,-14.47,21.0,6.7,1021.0
104,Makakilo City,75,US,1565570382,66,-158.09,21.35,31.0,7.2,1015.0
105,Shelburne,1,CA,1565570191,49,-80.2,44.08,26.0,2.1,1015.0
106,Along,73,IN,1565570198,87,94.8,28.17,16.12,3.19,1009.06
107,Coquimbo,0,CL,1565570170,81,-71.34,-29.95,12.0,2.6,1022.0
108,Fort Nelson,40,CA,1565570150,25,-122.69,58.81,23.0,1.5,1015.0
109,Los Llanos de Aridane,0,ES,1565570135,73,-17.92,28.66,23.0,5.7,1021.0
110,Batagay-Alyta,0,RU,1565570164,43,130.41,67.8,17.22,2.68,1010.55
111,Kahului,20,US,1565570131,58,-156.47,20.89,31.0,3.6,1015.0
112,Lasa,0,CY,1565570213,68,32.53,34.92,25.0,3.6,1004.0
113,Ghanzi,0,BW,1565570383,25,21.65,-21.7,16.62,3.99,1017.91
114,Erenhot,20,CN,1565570241,64,111.97,43.65,18.12,3.26,1009.03
115,Lavrentiya,100,RU,1565570141,97,-170.99,65.58,8.82,1.98,1016.12
116,Taveta,25,TZ,1565570383,79,37.68,-3.4,17.42,0.39,1018.7
117,El Alto,0,BO,1565570383,70,-68.19,-16.5,6.0,4.6,1036.0
118,Havelock,1,US,1565570383,65,-76.9,34.88,28.0,4.1,1016.0
119,Iqaluit,20,CA,1565570384,86,-68.52,63.75,5.0,3.1,1015.0
120,Victoria,75,BN,1565570161,83,115.24,5.28,29.0,2.03,1010.0
121,Pangnirtung,0,CA,1565570126,70,-65.72,66.15,7.92,1.98,1018.5
122,Codrington,0,AU,1565570207,40,153.24,-28.95,15.56,6.2,1018.0
123,Yumen,100,CN,1565570182,25,97.04,40.29,24.52,7.11,1009.54
124,Hamilton,20,CA,1565570162,68,-79.87,43.26,26.11,3.6,1015.0
125,Grindavik,75,IS,1565570147,66,-22.43,63.84,9.0,8.2,1015.0
126,Meulaboh,100,ID,1565570202,74,96.13,4.14,27.62,3.99,1010.26
127,Nizwa,79,OM,1565570199,41,57.53,22.93,30.02,0.41,996.11
128,The Pas,1,CA,1565570384,45,-101.24,53.82,20.0,1.62,1017.0
129,Sao Filipe,0,CV,1565570197,81,-24.5,14.9,24.82,7.08,1014.51
130,Cayenne,0,GF,1565570274,88,-52.33,4.94,26.0,1.6,1014.0
131,Souillac,0,FR,1565570160,93,-0.6,45.6,14.0,0.5,1019.0
132,Imeni Zhelyabova,91,RU,1565570385,83,36.6,58.95,6.62,1.31,1017.6
133,Takoradi,32,GH,1565570121,89,-1.75,4.89,22.32,1.93,1015.8
134,Kilindoni,18,TZ,1565570149,79,39.67,-7.91,24.92,8.2,1016.69
135,La Ronge,20,CA,1565570144,48,-105.3,55.1,19.0,1.0,1018.0
136,Ribeira Grande,44,PT,1565570297,80,-28.7,38.52,21.42,2.01,1025.52
137,Bambous Virieux,40,MU,1565570152,73,57.76,-20.34,22.22,5.7,1023.0
138,Sao Sepe,0,BR,1565570385,82,-53.57,-30.16,16.0,3.1,1014.0
139,Upernavik,10,GL,1565570290,63,-56.15,72.79,7.62,3.31,1021.36
140,Alcaniz,28,ES,1565570386,60,-0.13,41.05,20.56,3.58,1017.0
141,Brae,96,GB,1565570386,81,-1.35,60.4,11.0,4.1,1007.0
142,Georgetown,20,GY,1565570006,83,-58.16,6.8,28.0,3.1,1013.0
143,Vanimo,98,PG,1565570387,75,141.3,-2.67,27.72,2.99,1012.92
144,Castro,75,CL,1565570124,100,-73.76,-42.48,5.0,2.1,1021.0
145,Sitka,49,US,1565570155,42,-99.65,37.17,34.44,8.94,957.0
146,Lorengau,77,PG,1565570142,68,147.27,-2.02,28.12,0.61,1012.12
147,Vila Velha,0,BR,1565570145,83,-38.6,-3.71,26.0,3.6,1016.0
148,Deniliquin,0,AU,1565570388,64,144.96,-35.53,13.33,4.02,1024.0
149,Mogadishu,22,SO,1565570138,75,45.34,2.04,24.22,6.57,1014.36
150,Harper,1,US,1565570143,28,-99.24,30.3,36.0,3.6,1014.0
151,Puerto Narino,0,CO,1565570222,88,-70.38,-3.77,26.0,1.0,1011.0
152,Faya,40,SA,1565570125,88,42.45,18.39,20.0,3.1,1021.0
153,Jumla,100,NP,1565570389,93,82.18,29.28,12.72,0.89,1009.34
154,Yellowknife,20,CA,1565569942,52,-114.38,62.45,19.0,3.6,1015.0
155,Kaitangata,54,NZ,1565570128,74,169.85,-46.28,9.44,4.47,990.0
156,Longyearbyen,75,NO,1565570121,70,15.63,78.22,6.0,2.6,1016.0
157,Grand-Lahou,0,CI,1565570389,92,-5.0,5.24,20.82,1.42,1015.95
158,Ancud,75,CL,1565570349,100,-73.83,-41.87,5.0,2.1,1021.0
159,Lufilufi,75,WS,1565570389,88,-171.6,-13.87,27.0,6.7,1013.0
160,Mecca,17,SA,1565570132,61,39.83,21.43,30.12,2.24,1006.02
161,Moffat,40,GB,1565570390,100,-3.44,55.33,11.0,1.0,1010.0
162,Fukue,75,JP,1565570390,58,136.69,35.03,33.33,5.7,1007.0
163,Zemio,100,CF,1565570390,97,25.13,5.02,20.42,1.14,1013.23
164,Naze,84,NG,1565570390,97,7.07,5.43,22.42,1.27,1014.86
165,Sladkovo,87,RU,1565570390,73,70.34,55.53,17.32,3.56,1007.27
166,Goulburn,0,AU,1565570391,92,149.72,-34.75,10.0,2.52,1023.0
167,Dingle,88,PH,1565570132,78,122.67,11.0,27.32,3.66,1009.21
168,Sterling,1,US,1565570391,46,-77.4,39.0,26.67,1.25,1016.0
169,Kaele,100,CM,1565570391,91,14.45,10.11,22.32,3.3,1012.23
170,Bolobo,98,CD,1565570391,58,16.23,-2.17,27.32,0.3,1011.99
171,Luganville,40,VU,1565570391,83,167.18,-15.51,28.0,4.1,1013.0
172,Luderitz,0,NA,1565570143,76,15.16,-26.65,13.0,6.2,1021.0
173,Arang,75,IN,1565570392,100,81.97,21.2,25.0,3.1,1003.0
174,Pata,40,GM,1565570392,100,-14.95,13.44,23.0,2.1,1015.0
175,Half Moon Bay,1,US,1565570216,72,-122.43,37.46,29.0,8.2,1017.0
176,Bougouni,70,ML,1565570392,92,-7.49,11.42,22.62,2.77,1014.07
177,Vanavara,100,RU,1565570217,96,102.28,60.35,11.72,6.18,999.66
178,Tual,92,ID,1565570234,80,132.75,-5.67,25.02,9.56,1015.52
179,Yulara,0,AU,1565570238,50,130.99,-25.24,13.0,5.7,1027.0
180,Amambai,0,BR,1565570392,51,-55.23,-23.11,21.22,2.27,1013.43
181,Sola,26,TZ,1565570240,52,33.8,-3.17,19.22,4.89,1013.92
182,Kuruman,0,ZA,1565570393,33,23.43,-27.46,6.67,3.86,1017.0
183,Logansport,90,US,1565570380,54,-86.36,40.75,27.0,2.1,1014.0
184,Bandarbeyla,0,SO,1565570222,67,50.81,9.49,23.92,13.29,1007.65
185,Thompson,40,CA,1565570290,45,-97.86,55.74,19.0,6.2,1015.0
186,Ucluelet,75,CA,1565570191,88,-125.55,48.94,21.67,4.1,1019.0
187,Lebu,75,ET,1565570156,93,38.73,8.96,14.0,3.1,1026.0
188,Altay,0,CN,1565570234,55,88.13,47.83,9.42,1.36,1012.1
189,Ossora,100,RU,1565570393,94,163.07,59.24,11.52,2.24,999.71
190,Nikolskoye,90,RU,1565569922,100,30.79,59.7,16.0,2.0,1013.0
191,Narsaq,0,GL,1565570139,35,-46.05,60.91,13.0,7.7,1015.0
192,Kununurra,60,AU,1565570394,15,128.74,-15.77,24.0,7.2,1020.0
193,Beringovskiy,96,RU,1565570175,86,179.32,63.05,12.52,1.59,1005.0
194,Kavaratti,80,IN,1565570200,75,72.64,10.57,28.22,8.68,1008.31
195,Praya,20,ID,1565570394,88,116.27,-8.71,24.0,1.5,1014.0
196,Namibe,35,AO,1565570147,85,12.15,-15.19,17.42,4.42,1014.68
197,Saint Anthony,1,US,1565570154,22,-111.68,43.97,24.0,10.3,1018.0
198,Guerrero Negro,14,MX,1565570160,88,-114.04,27.97,18.72,6.74,1011.81
199,Aykhal,75,RU,1565570290,59,111.51,65.95,16.0,3.0,1007.0
200,Shimanovsk,0,RU,1565570394,60,127.67,52.0,20.32,2.34,1007.71
201,Berlevag,100,NO,1565570193,93,29.09,70.86,9.22,5.54,1007.46
202,Faanui,13,PF,1565570189,79,-151.75,-16.48,26.32,5.42,1014.52
203,Maldonado,0,UY,1565570395,93,-54.96,-34.91,9.0,3.6,1015.0
204,Vao,63,EE,1565570136,97,26.19,59.1,14.12,3.87,1010.83
205,Banda Aceh,100,ID,1565569890,70,95.32,5.56,28.82,9.68,1009.02
206,Singapore,75,MY,1565570117,79,103.85,1.29,29.0,3.6,1010.0
207,Mushie,85,CD,1565570395,71,16.92,-3.02,25.22,2.17,1011.91
208,Port Macquarie,40,AU,1565570236,44,152.91,-31.43,18.33,7.7,1017.0
209,Huruta,100,ET,1565570395,89,39.35,8.15,16.02,3.87,1015.96
210,Tilichiki,100,RU,1565570159,87,166.1,60.47,13.22,1.68,998.35
211,Hualmay,28,PE,1565570396,86,-77.61,-11.1,15.32,9.41,1014.39
212,Havoysund,75,NO,1565570396,93,24.66,71.0,13.0,1.0,1007.0
213,Klaksvik,65,FO,1565570185,87,-6.59,62.23,8.0,4.15,1008.0
214,Tortoli,0,IT,1565570396,32,9.66,39.93,28.89,0.89,1010.0
215,Sarevere,14,EE,1565570396,99,25.43,58.79,16.11,0.45,1011.0
216,Chase,1,US,1565570152,59,-98.35,38.35,35.56,6.7,1011.0
217,Norman Wells,75,CA,1565570290,62,-126.83,65.28,13.0,1.0,1017.0
218,Resplendor,77,BR,1565570396,63,-41.26,-19.33,22.52,2.58,1021.92
219,Khandyga,69,RU,1565570212,42,135.58,62.65,20.72,1.16,1005.96
220,Guadalupe y Calvo,81,MX,1565570397,87,-106.96,26.09,18.12,1.49,1013.2
221,Sur,100,OM,1565570176,80,59.53,22.57,25.22,6.54,997.03
222,Acapulco,75,MX,1565570210,74,-99.88,16.86,30.0,4.1,1010.0
223,Pimentel,0,BR,1565570350,62,-45.5,-3.7,24.42,0.65,1013.55
224,Mizdah,0,LY,1565570397,58,12.98,31.45,21.62,2.41,1013.86
225,Providencia,20,CO,1565570397,43,-77.6,1.24,22.0,7.2,1018.0
226,Ginda,90,IN,1565570398,100,78.49,30.69,24.0,2.1,1002.0
227,Mnogovershinnyy,95,RU,1565570211,60,139.92,53.94,16.12,3.58,1006.61
228,Ganta,80,LR,1565570398,99,-8.54,7.31,20.32,1.31,1016.61
229,Richards Bay,34,ZA,1565570211,85,32.06,-28.77,20.32,6.58,1014.43
230,Ouesso,100,CG,1565570398,93,16.05,1.61,21.62,1.08,1013.04
231,Andros,0,GR,1565570398,65,24.93,37.83,26.11,9.8,1008.0
232,Den Helder,75,NL,1565570398,82,4.76,52.96,18.33,8.2,1011.0
233,Jiuquan,82,CN,1565570399,29,98.49,39.73,22.62,3.26,1010.27
234,Ziarat,87,PK,1565570399,87,67.73,30.38,18.12,1.61,1002.55
235,Kaduqli,97,SD,1565570399,88,29.72,11.01,21.62,2.73,1012.08
236,Nakhon Phanom,100,LA,1565570399,94,104.79,17.4,24.82,1.1,1006.43
237,Skelleftea,68,SE,1565570399,87,20.95,64.75,16.0,2.1,1005.0
238,Padang,99,ID,1565570131,80,100.36,-0.92,27.12,5.04,1011.27
239,Dunedin,80,NZ,1565570021,64,170.5,-45.87,10.56,8.05,991.0
240,Tiznit,0,MA,1565570188,80,-9.73,29.7,20.32,5.96,1012.86
241,Ankang,0,CN,1565570400,57,108.99,32.73,22.22,1.08,1004.95
242,Mariental,90,BR,1565570400,93,-49.65,-25.72,18.89,4.1,1024.0
243,Jinchang,81,CN,1565570400,35,102.19,38.52,19.42,0.8,1009.55
244,Filadelfia,0,PY,1565570401,38,-60.04,-22.35,25.02,3.05,1008.0
245,Iaciara,0,BR,1565570401,40,-46.63,-14.1,21.72,0.27,1017.77
246,Port Hedland,56,AU,1565570235,20,118.58,-20.31,23.0,5.7,1019.0
247,Pastavy,45,BY,1565570401,84,26.84,55.11,12.62,2.43,1017.14
248,Baykit,100,RU,1565570161,68,96.39,61.68,10.22,3.42,1010.31
249,Riyadh,0,SA,1565570195,23,46.72,24.63,29.0,2.1,1004.0
250,Atlantic Beach,90,US,1565570401,94,-81.4,30.33,29.0,5.7,1015.0
251,Guarda,2,PT,1565570402,90,-7.27,40.54,16.67,1.37,1023.0
252,Beruwala,96,LK,1565570342,80,79.98,6.48,28.12,9.42,1008.67
253,Omboue,34,GA,1565570402,81,9.26,-1.57,22.42,4.29,1015.42
254,Walvis Bay,0,NA,1565570192,87,14.51,-22.95,15.0,3.6,1020.0
255,Mount Gambier,40,AU,1565570171,76,140.78,-37.83,9.0,2.6,1027.0
256,Ponta do Sol,0,BR,1565570013,57,-46.0,-20.63,19.72,0.92,1020.4
257,Tura,100,RU,1565570134,61,100.22,64.27,12.92,1.59,1007.99
258,Necochea,84,AR,1565569897,79,-58.74,-38.55,9.44,1.79,1013.0
259,Udachnyy,75,RU,1565570402,59,112.4,66.42,16.0,3.0,1007.0
260,Touros,20,BR,1565569967,94,-35.46,-5.2,23.0,2.1,1017.0
261,Margate,75,AU,1565570240,57,147.26,-43.03,11.11,9.3,1013.0
262,Agutaya,56,PH,1565570403,83,120.94,11.15,28.12,6.08,1009.43
263,Mildura,0,AU,1565570403,70,142.16,-34.18,9.0,4.1,1027.0
264,Lagoa,0,PT,1565570144,49,-8.45,37.14,21.0,7.7,1019.0
265,Saskylakh,0,RU,1565570123,50,114.09,71.97,19.12,4.52,1009.96
266,Tornio,90,FI,1565570403,100,27.27,61.12,15.0,3.6,1010.0
267,Chuy,75,UY,1565570167,90,-53.46,-33.69,10.52,3.84,1017.74
268,Betare Oya,100,CM,1565570403,97,14.08,5.6,18.62,0.83,1014.87
269,Sorland,63,NO,1565570404,85,12.69,67.67,14.12,4.97,1001.18
270,Tommot,29,RU,1565570167,65,126.27,58.97,17.22,1.0,1005.77
271,Mahebourg,40,MU,1565570130,73,57.7,-20.41,22.22,5.7,1023.0
272,Marsh Harbour,100,BS,1565570404,73,-77.06,26.54,29.72,3.96,1014.31
273,Fairmont,40,US,1565570371,78,-97.59,40.64,28.89,2.6,1013.0
274,Tromso,90,NO,1565570110,82,18.96,69.65,13.0,6.2,1004.0
275,Alice Town,50,BS,1565570404,72,-79.3,25.72,30.32,6.15,1013.98
276,Esperance,0,AU,1565570139,93,121.89,-33.86,9.0,5.7,1028.0
277,Mailsi,3,PK,1565570405,60,72.18,29.8,31.32,3.43,998.04
278,Chenzhou,10,CN,1565570405,68,113.03,25.81,27.82,1.17,1002.33
279,Port Augusta,3,AU,1565570216,87,137.76,-32.49,10.0,1.0,1029.0
280,Tasiilaq,0,GL,1565569918,93,-37.64,65.61,4.0,3.1,1020.0
281,Gisborne,83,NZ,1565570403,48,178.02,-38.66,17.78,4.02,992.0
282,Zhuhai,0,CN,1565569959,64,112.04,40.71,21.0,1.0,1010.0
283,Chokurdakh,0,RU,1565570139,63,147.9,70.62,11.32,5.57,1016.91
284,Coihaique,90,CL,1565569860,86,-72.07,-45.58,4.0,2.1,1022.0
285,Pangkalanbuun,96,ID,1565570406,90,111.62,-2.68,24.22,1.57,1012.21
286,Gerash,0,IR,1565570406,42,54.14,27.67,30.0,0.78,999.0
287,Kamenka,0,MD,1565570406,93,28.7,48.03,15.0,0.84,1016.0
288,Manaus,0,BR,1565570407,74,-59.98,-3.13,29.0,1.0,1012.0
289,Leshukonskoye,3,RU,1565570407,95,45.76,64.9,0.62,1.35,1019.78
290,Fortuna,1,US,1565570154,72,-124.16,40.6,20.0,7.2,1020.0
291,Diffa,98,NE,1565570407,69,12.61,13.32,27.22,6.73,1010.0
292,Tarko-Sale,100,RU,1565570407,92,77.78,64.92,5.56,1.13,1014.0
293,Sisimiut,21,GL,1565570157,64,-53.67,66.94,9.12,4.6,1014.91
294,Sobolevo,73,RU,1565570408,97,31.9,54.43,12.92,2.02,1018.11
295,Warrington,0,GB,1565570408,93,-2.59,53.39,13.33,1.5,1012.0
296,Usinsk,100,RU,1565570408,91,57.56,66.0,2.62,6.49,1013.93
297,Agadez,1,NE,1565570177,65,7.99,16.97,28.0,7.39,1011.0
298,Flin Flon,13,CA,1565570409,39,-101.88,54.77,20.92,2.92,1016.14
299,Eyl,14,SO,1565570218,67,49.82,7.98,23.72,12.46,1010.43
300,Cidreira,17,BR,1565570136,83,-50.22,-30.17,15.32,6.68,1017.59
301,Minusinsk,90,RU,1565570409,100,91.7,53.7,10.0,1.0,1015.0
302,Manyana,40,AU,1565570409,54,150.51,-35.26,15.56,4.6,1019.0
303,San Quintin,100,PH,1565570166,91,120.52,17.54,25.82,4.27,1006.24
304,Casma,1,PE,1565570409,90,-78.3,-9.47,15.22,6.63,1013.92
305,Harer,40,US,1565570409,40,-111.17,42.19,27.78,4.1,1020.0
306,Kailua,75,US,1565570410,62,-157.74,21.39,31.0,7.7,1014.0
307,Lensk,14,RU,1565570330,59,114.91,60.71,18.12,5.77,1002.98
308,Umm Lajj,63,SA,1565570150,75,37.27,25.02,30.22,3.45,1005.59
309,Qiongshan,0,CN,1565570410,83,110.35,20.01,29.0,2.0,1003.0
310,Chabahar,94,IR,1565570410,76,60.65,25.29,27.32,4.42,997.44
311,Poplar Bluff,1,US,1565570410,74,-90.39,36.76,30.0,2.12,1014.0
312,Deputatskiy,2,RU,1565570173,47,139.9,69.3,17.42,5.42,1012.73
313,Rocha,90,UY,1565570411,91,-54.34,-34.48,8.32,2.31,1016.73
314,Hami,0,CN,1565570174,23,93.51,42.84,23.62,3.12,1008.28
315,Rumoi,75,JP,1565570411,82,141.67,43.93,19.0,4.1,1009.0
316,Rio Grande,17,BR,1565570197,89,-52.1,-32.03,12.12,1.56,1017.79
317,Bambanglipuro,2,ID,1565570348,85,110.28,-7.95,22.82,3.91,1013.63
318,Simpang,100,ID,1565570411,94,96.17,4.36,22.42,1.29,1009.99
319,Harwich,1,US,1565570161,73,-70.08,41.69,22.22,2.6,1015.0
320,Port Blair,90,IN,1565570153,94,92.75,11.67,25.0,5.1,1005.0
321,Henties Bay,0,NA,1565570153,91,14.28,-22.12,10.56,1.79,1021.0
322,Dhuburi,66,IN,1565570412,72,89.97,26.03,30.22,1.4,999.08
323,Gambela,92,ET,1565570412,75,34.59,8.25,20.12,1.53,1014.05
324,Port-Cartier,75,CA,1565570412,82,-66.88,50.03,17.22,1.0,1002.0
325,Saint George,0,GR,1565570198,47,22.34,39.45,27.0,0.41,1014.0
326,Farmington,1,US,1565570264,36,-108.21,36.73,27.0,5.1,1020.0
327,Mahuva,52,IN,1565570413,86,71.76,21.09,26.02,5.11,1003.05
328,Iwamizawa,75,JP,1565570413,83,141.79,43.18,23.33,7.2,1009.0
329,Ozernovskiy,69,RU,1565570413,94,156.52,51.5,9.52,2.38,1004.8
330,Westport,1,US,1565570228,44,-73.36,41.14,25.0,2.6,1015.0
331,Forestville,75,CA,1565570271,77,-69.09,48.74,15.0,3.6,1006.0
332,Belyy Yar,90,RU,1565570413,100,91.39,53.6,10.0,1.0,1015.0
333,Vestmannaeyjar,62,IS,1565570230,75,-20.27,63.44,8.12,11.83,1012.74
334,Havre-Saint-Pierre,40,CA,1565570414,87,-63.6,50.23,15.0,5.7,1001.0
335,Togur,15,RU,1565570414,88,82.83,58.36,10.02,0.83,1015.95
336,Kaeo,21,NZ,1565570331,100,173.78,-35.1,16.11,0.45,1000.0
337,Kjollefjord,75,NO,1565570414,93,27.35,70.95,9.0,1.0,1007.0
338,Loanda,0,BR,1565570414,44,-53.14,-22.93,24.82,4.47,1014.87
339,Iranshahr,100,IR,1565570414,34,60.69,27.21,35.0,1.4,998.0
340,Luanda,75,AO,1565570335,94,13.24,-8.83,21.0,2.1,1016.0
341,Rio Gallegos,31,AR,1565570182,69,-69.22,-51.62,-1.39,3.2,1024.89
342,Mubi,100,NG,1565570415,95,13.26,10.27,21.22,2.34,1012.12
343,Vostok,100,RU,1565570108,99,135.83,46.45,15.92,0.87,1005.8
344,Kolondieba,56,ML,1565570415,85,-6.89,11.09,23.82,3.39,1014.28
345,Permatang Kuching,75,MY,1565570415,94,100.38,5.46,28.0,1.0,1009.0
346,Ormara,100,PK,1565570415,84,64.64,25.21,26.42,2.16,997.63
347,Nhulunbuy,0,AU,1565570416,44,136.78,-12.18,25.0,9.3,1018.0
348,Amberley,17,NZ,1565570416,87,172.73,-43.15,11.11,1.5,992.0
349,Bonito,2,BR,1565570358,91,-47.3,-1.36,23.72,3.38,1013.33
350,Sanandaj,20,IR,1565570416,28,47.0,35.31,27.0,4.1,1013.0
351,Zapolyarnyy,100,RU,1565570172,93,30.82,69.43,9.0,4.6,1009.0
352,Petropavlovsk-Kamchatskiy,49,RU,1565570122,64,158.65,53.05,22.0,2.0,1000.0
353,Dzilam Gonzalez,1,MX,1565570416,82,-88.93,21.28,29.44,4.92,1014.0
354,Malatya,0,TR,1565570417,52,38.32,38.35,18.0,0.5,1010.0
355,Nuevitas,40,CU,1565570417,88,-77.27,21.55,25.0,1.0,1016.0
356,Aden,57,YE,1565570369,57,45.03,12.79,32.72,2.84,1005.13
357,Waingapu,57,ID,1565570302,67,120.26,-9.65,25.52,5.37,1014.9
358,Tuatapere,87,NZ,1565570209,74,167.69,-46.13,8.89,4.47,994.0
359,Koslan,21,RU,1565570417,91,48.9,63.46,2.02,3.36,1016.69
360,Solwezi,0,ZM,1565570417,52,26.4,-12.18,12.22,2.74,1017.86
361,Hofn,100,IS,1565570166,80,-15.21,64.25,0.02,7.01,1007.51
362,Ahuimanu,75,US,1565570140,62,-157.84,21.44,31.0,7.7,1014.0
363,Sao Luis do Quitunde,75,BR,1565570417,83,-35.56,-9.32,23.0,2.6,1019.0
364,Anadyr,90,RU,1565570167,87,177.51,64.73,12.0,7.0,1007.0
365,Palmer,75,AU,1565570418,81,139.16,-34.85,11.11,2.6,1029.0
366,Lata,37,IN,1565570212,92,78.62,30.78,5.02,0.6,1006.7
367,Fomboni,0,KM,1565570418,67,43.74,-12.28,24.82,3.23,1017.44
368,Ambilobe,12,MG,1565570418,79,49.05,-13.19,17.72,4.0,1018.45
369,Kuusamo,0,FI,1565570418,76,29.19,65.96,11.0,3.1,1012.0
370,Aqtobe,40,KZ,1565570233,100,57.21,50.28,13.0,2.0,1001.0
371,Le Port,98,FR,1565570419,69,1.37,42.87,17.78,0.45,1017.0
372,Papetoai,20,PF,1565570419,66,-149.87,-17.5,29.0,2.6,1014.0
373,Galeana,7,MX,1565570419,42,-100.08,24.83,24.12,4.72,1010.93
374,Rawlins,20,US,1565570419,29,-107.24,41.79,26.0,6.2,1019.0
375,Kloulklubed,75,PW,1565570143,74,134.26,7.04,29.0,3.6,1010.0
376,Cap-aux-Meules,75,CA,1565570420,72,-61.86,47.38,19.0,5.1,1004.0
377,Griffith,90,AU,1565570420,100,146.06,-34.29,7.0,1.5,1024.0
378,Bethanien,0,NA,1565570420,63,17.16,-26.5,2.02,0.88,1022.16
379,Yerbogachen,77,RU,1565570228,55,108.01,61.28,17.42,5.75,1000.2
380,Olinda,75,AU,1565570077,81,145.39,-37.84,11.67,5.1,1024.0
381,Pundaguitan,67,PH,1565570420,78,126.17,6.37,27.52,3.73,1011.45
382,Coos Bay,1,US,1565570205,68,-124.22,43.37,26.67,5.1,1021.0
383,Mwinilunga,0,ZM,1565570420,45,24.43,-11.73,14.52,2.53,1016.81
384,Rapid Valley,90,US,1565570421,94,-103.15,44.06,23.0,6.2,1015.0
385,Ketchikan,75,US,1565570421,72,-131.65,55.34,18.0,6.2,1017.0
386,Deer Lake,90,CA,1565570172,87,-57.43,49.18,16.0,3.1,1001.0
387,Portland,1,US,1565570421,60,-70.25,43.66,21.11,2.6,1012.0
388,Gamba,24,CN,1565570297,81,88.52,28.28,4.72,0.88,1013.17
389,Manta,0,RO,1565570421,67,24.1,45.1,20.92,1.13,1017.0
390,Namie,75,JP,1565570422,78,140.86,37.52,27.78,4.1,1011.0
391,Rong Kwang,75,TH,1565570422,100,100.32,18.34,25.0,1.5,1006.0
392,Vysotsk,90,RU,1565570422,100,28.57,60.63,15.0,2.1,1011.0
393,Kudahuvadhoo,100,MV,1565570202,73,72.89,2.67,28.42,2.81,1009.2
394,Ternate,75,PH,1565570422,79,120.72,14.29,29.0,6.7,1007.0
395,Lakki Marwat,15,PK,1565570422,56,70.91,32.61,32.62,0.29,999.75
396,Azul,33,AR,1565570423,61,-59.86,-36.78,10.56,2.84,1002.0
397,Pangai,40,TO,1565570423,78,-174.35,-19.8,27.0,5.7,1016.0
398,Talaya,0,RU,1565570423,93,84.89,55.79,11.0,0.92,1015.0
399,Bandar,100,BD,1565570423,89,91.78,22.29,27.72,7.25,999.45
400,Lethem,21,GY,1565570423,78,-59.8,3.38,26.32,1.83,1012.73
401,Nanchang,7,CN,1565570423,76,115.89,28.68,27.22,0.31,1000.44
402,Tabuk,100,PH,1565570195,98,121.44,17.41,20.12,2.55,1006.0
403,Taoudenni,12,ML,1565570424,8,-3.98,22.68,39.82,4.01,1005.11
404,Ivanteyevka,0,RU,1565570424,100,37.92,55.97,12.22,1.0,1017.0
405,Coihueco,24,CL,1565570424,93,-71.83,-36.63,7.0,2.1,1025.0
406,Ouadda,100,CF,1565570424,97,22.4,8.07,20.12,0.7,1013.07
407,Itupiranga,20,BR,1565570424,57,-49.33,-5.13,27.0,0.5,1013.0
408,Vila,75,IT,1565570357,73,8.4,45.18,26.11,1.5,1013.0
409,Maungatapere,24,NZ,1565570425,75,174.21,-35.76,16.11,3.13,1000.0
410,Babanka,0,UA,1565570425,88,30.45,48.71,17.32,0.76,1018.65
411,Broome,74,GB,1565570139,93,1.45,52.47,15.0,3.1,1012.0
412,Manakara,97,MG,1565570425,94,48.01,-22.14,19.22,1.46,1023.79
413,Vila Franca do Campo,40,PT,1565570134,82,-25.43,37.72,20.0,4.6,1025.0
414,Phetchabun,75,TH,1565570426,88,101.16,16.42,26.0,1.5,1006.0
415,Sao Joao da Barra,0,BR,1565570214,88,-41.05,-21.64,22.0,2.1,1022.0
416,Golkoy,20,TR,1565570426,82,37.62,40.69,20.0,1.5,1016.0
417,Owando,95,CG,1565570427,73,15.91,-0.49,24.72,1.64,1012.36
418,Lucapa,0,AO,1565570427,63,20.74,-8.42,21.12,1.47,1013.33
419,Madinat Sittah Uktubar,0,EG,1565570427,61,31.05,29.82,28.0,2.6,1007.0
420,Blythe,75,US,1565570427,16,-114.59,33.61,41.0,6.2,1008.0
421,Cary,1,US,1565570427,83,-78.78,35.79,28.0,2.05,1015.0
422,Peoria,90,US,1565570428,83,-89.59,40.69,28.0,1.5,1013.0
423,Tocopilla,29,CL,1565570311,85,-70.2,-22.09,13.72,6.72,1015.9
424,Anbu,40,CN,1565570504,84,116.68,23.45,30.0,2.0,1002.0
425,Komsomolskiy,96,RU,1565570504,92,63.78,67.55,0.52,4.39,1014.22
426,Campos,40,PT,1565570504,93,-8.7,41.97,16.11,1.0,1024.0
427,Santana,20,BR,1565570504,89,-51.18,-0.06,29.0,5.1,1013.0
428,Quchan,7,IR,1565570504,94,58.51,37.11,15.62,7.1,1012.11
429,Trapani,0,IT,1565570504,83,12.54,38.02,26.67,1.0,1012.0
430,Yatou,90,CM,1565570505,100,9.81,3.63,24.0,5.83,1014.0
431,Geraldton,20,CA,1565570129,40,-86.95,49.72,21.0,3.1,1013.0
432,Khorinsk,100,RU,1565570505,87,109.78,52.16,10.22,3.58,1010.33
433,Lake Charles,1,US,1565570210,66,-93.22,30.23,33.0,2.1,1014.0
434,Pokhara,100,NP,1565570505,77,83.99,28.21,14.62,1.35,1006.8
435,Sawakin,0,SD,1565570505,64,37.33,19.1,25.92,8.35,1008.0
436,Durant,1,US,1565570308,32,-96.37,33.99,37.0,2.6,1013.0
437,Bogo,100,CM,1565570506,88,14.61,10.74,23.02,2.93,1011.31
438,Saint-Pierre,0,FR,1565570349,93,4.24,48.95,13.89,4.1,1018.0
439,Kyren,72,RU,1565570213,87,102.13,51.68,5.32,1.07,1014.56
440,Port Lincoln,98,AU,1565570178,70,135.86,-34.72,11.12,4.62,1030.44
441,Ninghai,0,CN,1565570507,74,121.42,29.29,32.22,1.0,1000.0
442,Bokaro,78,IN,1565570507,85,86.15,23.65,26.12,2.33,999.35
443,Maputo,0,MZ,1565570508,46,32.57,-25.97,22.0,4.1,1013.0
444,Bulungu,54,CD,1565570273,51,18.6,-4.54,27.42,0.16,1011.49
445,Veraval,20,FR,1565570508,87,0.71,49.65,16.11,4.1,1016.0
446,Opuwo,0,NA,1565570218,69,13.84,-18.06,13.12,0.17,1016.13
447,Fortuna Foothills,1,US,1565570509,15,-114.41,32.66,41.0,3.6,1008.0
448,Monrovia,75,LR,1565570497,94,-10.8,6.33,23.0,3.51,1017.0
449,Invermere,100,CA,1565570509,93,-116.03,50.51,15.56,0.83,1012.0
450,Cutervo,0,PE,1565570509,73,-78.82,-6.38,15.32,4.27,1014.2
451,Vardo,1,US,1565570146,34,-77.74,39.62,26.0,2.1,1017.0
452,Inhambane,0,MZ,1565570194,90,35.38,-23.87,17.32,2.86,1017.37
453,Joensuu,0,FI,1565570509,66,29.76,62.6,12.0,5.1,1013.0
454,Shankargarh,68,IN,1565570509,68,81.61,25.19,29.12,4.87,999.58
455,Mount Isa,0,AU,1565570134,36,139.49,-20.73,16.0,7.2,1023.0
456,Sorong,59,ID,1565570510,83,131.25,-0.86,26.72,4.27,1013.05
457,Dickinson,90,US,1565570419,100,-102.79,46.88,21.11,10.8,1013.0
458,Linhares,0,BR,1565570510,89,-40.06,-19.38,20.62,1.26,1021.95
459,Goundam,83,ML,1565570201,38,-3.66,16.42,34.02,6.57,1009.49
460,Duldurga,66,RU,1565570510,69,113.59,50.67,17.32,1.88,1006.64
461,Hays,1,US,1565570511,62,-99.33,38.88,32.78,9.3,1011.0
462,Goderich,27,CA,1565570163,70,-81.71,43.74,23.33,3.37,1015.0
463,North Bend,1,US,1565570225,68,-124.22,43.41,26.67,5.1,1021.0
464,Noumea,90,NC,1565570175,73,166.46,-22.28,23.0,4.1,1017.0
465,Newport,19,GB,1565570481,93,-3.0,51.59,14.44,2.1,1013.0
466,Kazuno,75,JP,1565570511,83,140.83,40.2,25.0,1.5,1008.0
467,Sechura,12,PE,1565570511,84,-80.82,-5.56,16.82,7.41,1011.07
468,Elko,1,US,1565570511,15,-115.76,40.83,27.0,5.1,1020.0
469,Sibolga,100,ID,1565570183,81,98.78,1.74,27.02,4.55,1011.36
470,Kushima,75,JP,1565570185,83,131.29,31.5,29.0,5.1,1003.0
471,Kuytun,0,RU,1565570512,84,101.51,54.34,11.42,3.11,1013.32
472,Yako,43,BF,1565570512,79,-2.26,12.96,25.72,4.19,1012.43
473,Dayong,0,CN,1565570512,74,118.29,25.02,30.0,3.0,1001.0
474,Taksimo,100,RU,1565570512,51,114.84,56.36,18.12,1.69,1001.49
475,Kurilsk,100,RU,1565570127,85,147.88,45.23,13.72,3.17,1011.91
476,Chara,0,GR,1565570512,47,22.43,39.42,27.0,0.41,1014.0
477,Emba,0,CY,1565570513,68,32.42,34.81,25.0,3.6,1004.0
478,Perth,0,AU,1565570336,54,115.86,-31.95,17.22,6.2,1022.0
479,San Jose,1,HN,1565570391,43,-87.96,14.25,31.0,4.6,1014.0
480,Doha,0,QA,1565570513,36,51.53,25.29,35.0,2.1,995.0
481,Toora-Khem,42,RU,1565570513,93,96.11,52.47,7.32,0.5,1016.52
482,Benghazi,0,LY,1565570513,78,20.07,32.12,26.12,5.73,1009.1
483,Ciudad Bolivar,7,VE,1565570514,77,-63.55,8.12,26.42,2.7,1011.25
484,Hay River,20,CA,1565570514,49,-115.79,60.82,20.0,3.6,1015.0
485,Chifeng,99,CN,1565570191,91,118.96,42.27,16.62,6.4,1005.31
486,Baghdad,0,IQ,1565570514,24,44.38,33.3,32.0,3.6,995.0
487,Iguape,55,BR,1565570514,94,-47.56,-24.7,16.52,0.44,1022.38
488,Calabozo,17,VE,1565570514,94,-67.43,8.92,24.42,1.52,1011.5
489,Bundaberg,0,AU,1565570203,26,152.35,-24.87,18.33,5.1,1020.0
490,Barcelos,50,BR,1565570454,94,-62.93,-0.97,23.62,0.85,1010.85
491,Miharu,75,JP,1565570515,78,140.49,37.44,27.78,4.1,1011.0
492,Mamontovo,0,RU,1565570515,60,81.63,52.71,14.52,1.97,1012.16
493,Northam,0,AU,1565570224,50,116.67,-31.65,14.0,7.2,1022.0
494,Orje,94,NO,1565570515,90,11.66,59.48,16.11,2.24,999.0
495,Malanville,0,NE,1565570515,78,3.39,11.86,25.32,4.27,1012.33
496,Bacsalmas,0,HU,1565570515,56,19.33,46.13,23.42,1.75,1013.87
497,Roald,100,NO,1565569988,100,6.12,62.58,15.0,1.0,1000.0
498,Santa Maria,40,BR,1565570516,47,-48.01,-16.02,24.0,2.6,1023.0
499,Beira,20,ES,1565570516,93,-8.36,43.2,16.67,2.1,1023.0
500,Tuscaloosa,1,US,1565570387,59,-87.57,33.21,33.0,2.6,1014.0
501,Denpasar,20,ID,1565570339,88,115.22,-8.65,26.0,3.1,1013.0
502,Sindor,19,RU,1565570516,81,51.9,62.87,3.92,4.63,1012.14
503,Isangel,75,VU,1565570289,70,169.27,-19.55,30.0,4.1,1014.0
504,Kamaishi,75,JP,1565570517,88,141.86,39.28,23.0,1.5,1009.0
505,Vancouver,75,CA,1565570258,68,-123.12,49.26,21.11,4.6,1018.0
506,Avera,1,US,1565570199,79,-82.53,33.19,31.0,2.1,1014.0
507,Atambua,1,ID,1565570233,65,124.89,-9.11,25.32,4.57,1015.85
508,Bejar,0,AL,1565570517,63,19.83,40.49,25.02,1.55,1012.76
509,Rawson,75,AR,1565570221,86,-65.11,-43.3,5.0,3.6,1021.0
510,Aswan,0,EG,1565570517,12,32.9,24.09,29.62,3.96,1005.75
511,Trinidad,0,BO,1565570232,69,-64.9,-14.83,26.0,1.46,1012.0
512,Menongue,0,AO,1565570517,31,17.68,-14.66,12.12,1.62,1018.26
513,Govlyar,75,AZ,1565570518,46,45.73,40.95,22.0,5.1,1016.0
514,Tazovskiy,63,RU,1565570518,84,78.7,67.47,4.82,5.54,1013.17
515,Ampanihy,0,MG,1565570518,72,44.75,-24.69,18.22,2.9,1019.55
516,Hongjiang,0,CN,1565570518,73,109.83,27.21,24.52,1.11,1002.87
517,Kavieng,92,PG,1565569934,72,150.8,-2.57,27.22,1.73,1011.59
518,Valdez,20,US,1565570519,46,-146.35,61.13,23.0,3.1,1016.0
519,Grodkow,0,PL,1565570519,72,17.38,50.7,20.0,0.5,1014.0
520,Karibib,0,NA,1565570519,29,15.86,-21.94,13.92,2.24,1018.48
521,Hambantota,100,LK,1565570151,80,81.12,6.12,26.92,10.07,1008.63
522,Rovinj,0,HR,1565570519,88,13.64,45.08,26.0,3.6,1012.0
523,San Carlos Park,20,US,1565570519,88,-81.81,26.47,29.0,4.36,1015.0
524,Kurumkan,100,RU,1565570520,97,110.32,54.33,7.92,3.59,1007.15
525,Kenai,1,US,1565569907,36,-151.26,60.55,26.0,3.6,1017.0
526,Bonavista,100,CA,1565570520,81,-53.11,48.65,17.78,0.89,1002.0
527,Grootfontein,0,NA,1565570520,37,18.1,-19.56,11.62,1.9,1018.36
528,Shimsk,29,RU,1565570521,98,30.71,58.21,12.22,1.71,1014.13
529,Kudat,75,MY,1565570521,88,116.84,6.89,27.0,1.5,1010.0
530,Xining,0,CN,1565570201,55,101.77,36.62,12.02,0.88,1012.48
531,Bathsheba,40,BB,1565570164,83,-59.52,13.22,27.0,8.7,1015.0
532,Chapais,75,CA,1565570217,77,-74.86,49.78,16.0,1.5,1008.0
533,Onega,37,RU,1565570521,82,38.09,63.91,7.02,3.51,1018.92
534,Buraydah,0,SA,1565570521,34,43.97,26.33,26.0,3.6,1005.0
535,Ngunguru,2,NZ,1565570522,75,174.5,-35.62,16.11,3.13,1000.0
536,Cabra,0,ES,1565570522,27,-4.43,37.47,23.0,2.1,1016.0
537,Tabou,92,CI,1565570174,83,-7.36,4.42,22.62,1.49,1016.46
538,Kalat,11,PK,1565570522,76,66.58,29.03,20.62,1.37,1001.78
539,Millinocket,20,US,1565570522,60,-68.71,45.66,20.56,1.5,1009.0
540,Aklavik,90,CA,1565570211,62,-135.01,68.22,11.0,4.1,1012.0
541,Beyneu,0,KZ,1565570186,54,55.19,45.32,20.22,7.02,1007.56
542,Songling,0,CN,1565570522,70,120.72,31.19,33.89,4.0,999.0
543,Maxixe,0,MZ,1565570523,90,35.35,-23.86,17.32,2.86,1017.37
544,Ondjiva,0,AO,1565570523,25,15.73,-17.07,17.52,2.47,1016.78
545,Sungaipenuh,90,ID,1565570523,80,101.38,-2.08,22.12,0.98,1012.01
546,Marinette,90,US,1565570523,78,-87.63,45.1,23.89,1.73,1014.0
547,Yar-Sale,100,RU,1565570523,67,70.83,66.83,8.62,4.79,1013.22
548,Tacna,90,PE,1565570524,82,-70.25,-18.01,15.0,2.6,1018.0
549,Paragominas,58,BR,1565570524,63,-47.35,-3.0,25.32,1.7,1013.29
550,Salinas,1,US,1565570524,42,-121.66,36.67,30.0,8.2,1014.0
551,Saint-Joseph,90,FR,1565570216,88,6.97,43.56,25.0,1.5,1012.0
552,Itamaraca,40,BR,1565570524,78,-34.83,-7.75,25.0,3.6,1018.0
553,Thurles,94,IE,1565570524,91,-7.82,52.68,12.22,1.34,1014.0
554,Senneterre,75,CA,1565570525,100,-77.24,48.39,17.0,2.1,1010.0
555,Beloha,0,MG,1565570525,64,45.06,-25.17,19.52,3.65,1019.85
556,Golfito,100,CR,1565570525,93,-83.17,8.64,24.82,2.36,1009.96
557,Conde,59,BR,1565570525,98,-37.61,-11.81,20.12,1.4,1019.8
558,Metro,35,ID,1565570525,85,105.31,-5.11,22.22,2.8,1012.17
559,Thunder Bay,5,CA,1565570525,36,-89.26,48.41,24.0,3.6,1013.0
560,Pevek,3,RU,1565570189,92,170.27,69.7,3.12,10.07,1013.74
561,Southbridge,1,US,1565570526,72,-72.03,42.08,22.78,2.6,1015.0
562,San Andres,97,PH,1565570240,68,122.68,13.32,28.62,2.64,1007.45
563,Mendi,100,ET,1565570528,96,35.1,9.8,15.82,2.21,1014.15
564,Basoko,98,CD,1565570529,96,23.61,1.23,21.62,0.91,1012.74
565,Mutsu,75,JP,1565570529,94,141.2,41.29,25.0,1.5,1009.0
566,Khodz,0,RU,1565570529,63,40.71,44.52,14.62,1.5,1017.83
567,Teya,75,MX,1565570529,58,-89.07,21.05,31.0,5.1,1014.0
568,Palauig,96,PH,1565570529,78,119.9,15.44,28.72,8.57,1007.59
569,Ahipara,47,NZ,1565570191,100,173.16,-35.17,15.56,12.92,1000.0
570,Mweka,5,CD,1565570530,68,21.56,-4.85,23.62,0.96,1011.47
571,Imbituba,75,BR,1565570530,77,-48.67,-28.24,18.0,6.2,1021.0
572,Ulkan,100,RU,1565570530,81,107.32,57.24,11.22,5.61,1005.89
573,Kropotkin,0,RU,1565570530,55,40.58,45.43,16.82,1.4,1018.34
574,Thai Binh,0,VN,1565570530,79,106.33,20.45,31.0,2.1,1001.0
575,Dicabisagan,100,PH,1565570530,77,122.42,17.08,28.02,0.45,1005.38
576,Barra Patuca,27,HN,1565570531,76,-84.28,15.8,29.12,6.83,1012.4
577,Leiyang,16,CN,1565570531,64,112.85,26.42,29.22,0.42,1001.93
578,Cuitlahuac,20,MX,1565570531,66,-96.72,18.82,30.56,5.7,1012.0
579,Shimoda,75,JP,1565570204,100,138.93,34.7,28.0,4.1,1008.0
580,Sarany,100,RU,1565570531,99,58.76,58.55,12.92,1.28,1001.63
581,Arlit,25,NE,1565570140,22,7.39,18.74,35.72,6.77,1006.1
582,Itapirapua,0,BR,1565570532,33,-50.61,-15.82,25.32,0.81,1015.03
583,Ulladulla,40,AU,1565570508,54,150.48,-35.36,13.0,4.6,1019.0
584,Alice Springs,0,AU,1565569882,54,133.88,-23.7,13.0,6.2,1027.0
585,Alofi,75,NU,1565570149,74,-169.92,-19.06,27.0,6.7,1017.0
586,Paita,0,PE,1565570532,88,-81.11,-5.09,16.52,9.85,1010.57
587,Nemuro,75,JP,1565570532,88,145.57,43.32,17.0,4.1,1011.0
588,Pangody,90,RU,1565570532,63,74.49,65.85,8.62,5.72,1014.03
589,Caucaia,0,BR,1565570222,83,-38.66,-3.73,26.0,3.6,1016.0
590,Zyryanovsk,0,KZ,1565570533,64,84.27,49.74,10.42,2.37,1012.75
591,Mozarlandia,0,BR,1565570533,38,-50.57,-14.74,25.72,1.73,1014.44
592,Shache,40,CN,1565570046,72,77.24,38.42,23.33,1.51,1021.0
593,Rantepao,56,ID,1565570533,86,119.9,-2.97,17.82,1.19,1013.58
594,Gavle,51,SE,1565570533,86,17.14,60.67,15.56,4.02,1004.0
595,Borba,57,BR,1565570533,50,-59.59,-4.39,26.22,0.72,1010.32
596,Fernley,1,US,1565570534,14,-119.25,39.61,29.0,4.6,1019.0
597,Mehamn,75,NO,1565570133,93,27.85,71.03,9.0,1.0,1007.0
598,Bani,100,YE,1565570534,80,42.93,16.02,30.12,7.32,1005.92
599,Basco,75,US,1565570534,74,-91.2,40.33,29.0,1.98,1014.0
600,Byron Bay,0,AU,1565570534,44,153.62,-28.65,16.11,7.2,1018.0
601,Ust-Koksa,0,RU,1565570534,84,85.62,50.27,4.92,0.87,1014.17
602,Ipoh,75,MY,1565570534,83,101.08,4.59,26.0,1.5,1010.0
603,Kostomuksha,33,RU,1565570535,79,30.6,64.59,8.12,2.45,1014.25
604,Tamandare,84,BR,1565570535,50,-70.75,-8.28,27.32,0.54,1010.96
605,Haines Junction,100,CA,1565570126,37,-137.51,60.75,17.42,0.88,1015.65
606,Manggar,49,ID,1565570152,80,108.27,-2.88,25.82,2.89,1011.06
607,Hauterive,1,CA,1565570535,72,-68.27,49.18,17.0,3.6,1004.0
608,Marsa Matruh,0,EG,1565570535,73,27.25,31.35,26.32,3.08,1007.29
609,Port-Gentil,20,GA,1565570041,94,8.78,-0.72,22.0,2.1,1016.0
610,Beisfjord,97,NO,1565570535,93,17.6,68.38,13.89,4.6,1003.0
611,Nelson Bay,75,AU,1565570536,50,152.14,-32.72,15.56,7.7,1019.0
612,Oksfjord,100,NO,1565570536,87,22.35,70.24,14.0,5.1,1005.0
613,Shizukuishi,75,JP,1565570536,88,140.98,39.7,27.0,1.5,1009.0
614,Riachao das Neves,7,BR,1565570536,49,-44.91,-11.75,21.32,0.94,1016.84
615,Valparaiso,90,US,1565570476,69,-87.06,41.47,27.0,1.5,1015.0
616,Vanderhoof,100,CA,1565570536,56,-124.02,54.02,19.72,2.13,1010.92
617,Darnah,0,LY,1565570537,82,22.64,32.77,26.22,7.49,1008.01
618,Baoding,88,CN,1565570537,68,115.49,38.86,25.32,1.87,1000.37
619,Adrar,0,DZ,1565570242,9,-0.29,27.87,36.0,4.6,1009.0
620,Santa Rosa,33,AR,1565570264,30,-64.29,-36.62,10.12,3.11,1016.47
621,Altusried,97,DE,1565570537,93,10.21,47.81,17.78,1.35,1018.0
622,Aosta,40,IT,1565570537,88,7.32,45.74,24.0,1.0,1013.0
623,Demyansk,73,RU,1565570537,98,32.46,57.64,12.52,2.48,1015.09
624,Am Timan,100,TD,1565570538,91,20.28,11.04,21.32,0.52,1012.06
625,Abnub,0,EG,1565570538,21,31.15,27.27,27.32,1.83,1006.34
626,Lisakovsk,100,KZ,1565570538,43,62.49,52.55,22.42,6.9,1000.67
627,Devils Lake,1,US,1565570286,60,-98.87,48.11,21.0,3.1,1017.0
628,Balloszog,0,HU,1565570538,82,19.57,46.86,21.67,1.0,1015.0
629,Karratha,30,AU,1565570236,24,116.85,-20.74,20.42,5.9,1018.9
630,Nyurba,1,RU,1565570538,61,118.35,63.29,19.22,1.22,1008.13
631,Wakkanai,75,JP,1565570539,88,141.67,45.41,17.0,5.1,1007.0
632,Payo,37,ID,1565570539,66,103.64,-3.75,18.92,1.43,1012.4
633,Urengoy,51,RU,1565570539,75,78.37,65.96,6.92,2.47,1014.96
634,Sao Paulo de Olivenca,30,BR,1565570539,67,-68.87,-3.38,25.92,0.57,1010.29
635,Jamame,47,SO,1565570539,72,42.75,0.07,24.32,4.8,1014.83
636,Broken Hill,0,AU,1565570205,70,141.45,-31.97,7.0,4.1,1027.0
637,Jalu,0,LY,1565570539,72,21.55,29.03,24.12,4.54,1007.11
638,Aksarka,100,RU,1565569993,88,67.8,66.56,8.52,4.6,1011.49
639,Winslow,40,GB,1565570540,93,-0.88,51.94,15.0,3.1,1013.0
640,Bellmead,5,US,1565570458,32,-97.11,31.59,37.0,5.1,1012.0
641,Sao Felix do Xingu,0,BR,1565570462,40,-51.99,-6.64,23.82,0.68,1012.78
642,Ayan,0,IR,1565570232,60,44.7,38.23,20.0,1.0,1015.0
643,Clemencia,40,CO,1565570540,74,-75.33,10.57,30.0,3.1,1008.0
644,Puri,0,ID,1565570171,77,112.45,-7.54,23.12,2.56,1013.23
645,Sosnovo-Ozerskoye,100,RU,1565570540,94,111.54,52.53,11.42,5.33,1006.9
646,Sao Jose da Coroa Grande,19,BR,1565570540,95,-35.15,-8.9,20.92,1.55,1018.93
647,Yabrud,0,SY,1565570541,78,36.66,33.97,22.0,5.1,1008.0
648,Lahat,37,ID,1565570541,66,103.55,-3.78,18.92,1.43,1012.4
649,Akcakoca,0,TR,1565570541,86,31.12,41.09,17.02,1.72,1014.67
650,Tucuman,0,PE,1565570541,37,-70.89,-17.17,9.32,0.96,1017.92
651,Salalah,75,OM,1565570136,88,54.1,17.01,25.0,2.6,1000.0
652,Havre,40,US,1565570541,77,-109.68,48.55,19.44,5.1,1013.0
653,Ingham,0,AU,1565570542,27,146.16,-18.65,20.02,0.6,1021.06
654,Vung Tau,35,VN,1565570474,88,107.08,10.35,26.32,1.25,1009.47
655,Xapuri,57,BR,1565570542,48,-68.5,-10.65,25.92,0.27,1009.95
656,Novokayakent,37,RU,1565570542,45,47.99,42.39,20.0,3.0,1016.0
657,Afyonkarahisar,0,TR,1565570542,60,30.53,38.76,17.78,2.68,1017.0
658,Akhmeta,75,GE,1565570542,60,45.21,42.03,22.0,3.1,1020.0
659,Novobirilyussy,75,RU,1565570543,94,90.69,56.95,10.22,1.81,1014.79
660,Oranjemund,0,ZA,1565570196,88,16.43,-28.55,13.12,4.97,1024.05
661,Qinzhou,97,CN,1565570543,82,108.62,21.96,29.12,1.33,1001.72
662,Sebring,1,US,1565570531,94,-81.44,27.5,28.33,1.5,1015.0
663,Cheremukhovo,53,RU,1565570543,93,46.23,56.23,7.52,3.56,1012.3
664,Kieta,42,PG,1565570543,73,155.63,-6.22,27.62,2.34,1012.25
665,Padampur,17,IN,1565570543,51,73.62,29.71,32.72,2.2,997.66
666,Santa Marinella,0,IT,1565570543,83,11.87,42.04,26.67,1.5,1013.0
667,Fayaoue,100,NC,1565570544,93,166.53,-20.65,23.12,5.24,1015.2
668,Chapada dos Guimaraes,0,BR,1565570544,39,-55.75,-15.46,27.0,1.5,1014.0
669,Caravelas,0,BR,1565570043,86,-39.27,-17.73,22.52,3.61,1021.97
670,Polunochnoye,100,RU,1565570544,99,60.43,60.87,11.52,0.45,999.35
671,Puerto Maldonado,0,PE,1565570544,57,-69.19,-12.59,25.32,0.55,1011.39
